[
  {
    "subject_name": "Anthony Templet's house",
    "latitude": 30.410317,
    "longitude": -90.996131,
    "source_url": "https://oddstops.com/anthony-templet",
    "local_file": "C:\\death-atlas\\oddstops_saved\\Anthony Templet's house.html"
  },
  {
    "subject_name": "Anton Yelchin's house",
    "latitude": 34.137826,
    "longitude": -118.381454,
    "source_url": "https://oddstops.com/anton-yelchin-house",
    "local_file": "C:\\death-atlas\\oddstops_saved\\Anton Yelchin's house.html"
  },
  {
    "subject_name": "The location where Carmine Galante was killed",
    "latitude": 40.703527,
    "longitude": -73.926402,
    "source_url": "https://oddstops.com/carmine-galante",
    "local_file": "C:\\death-atlas\\oddstops_saved\\Carmine Galante_ Death Location.html"
  },
  {
    "subject_name": "The house where Cassie Jo Stoddart was murdered",
    "latitude": 42.960045,
    "longitude": -112.447402,
    "source_url": "https://oddstops.com/cassie-jo-stoddart",
    "local_file": "C:\\death-atlas\\oddstops_saved\\Cassie Jo Stoddart_ Murder House.html"
  },
  {
    "subject_name": "Chris Benoit's house",
    "latitude": 33.393382,
    "longitude": -84.520651,
    "source_url": "https://oddstops.com/chris-benoit-house",
    "local_file": "C:\\death-atlas\\oddstops_saved\\Chris Benoit's house.html"
  },
  {
    "subject_name": "Chris Watts' house",
    "latitude": 40.090719,
    "longitude": -105.000554,
    "source_url": "https://oddstops.com/watts-family-house",
    "local_file": "C:\\death-atlas\\oddstops_saved\\Chris Watts' house.html"
  },
  {
    "subject_name": "D&G Tavern: The site where Ken McElroy was killed",
    "latitude": 40.288749,
    "longitude": -95.081746,
    "source_url": "https://oddstops.com/ken-mcelroy",
    "local_file": "C:\\death-atlas\\oddstops_saved\\D&G Tavern_ The site where Ken McElroy was killed.html"
  },
  {
    "subject_name": "Ernie Kovacs' crash site",
    "latitude": 34.057408,
    "longitude": -118.423831,
    "source_url": "https://oddstops.com/ernie-kovacs-car-crash",
    "local_file": "C:\\death-atlas\\oddstops_saved\\Ernie Kovacs' crash site.html"
  },
  {
    "subject_name": "Faith Hedgepeth's apartment",
    "latitude": 35.941308,
    "longitude": -79.002618,
    "source_url": "https://oddstops.com/faith-hedgepeth-apartment",
    "local_file": "C:\\death-atlas\\oddstops_saved\\Faith Hedgepeth's apartment.html"
  },
  {
    "subject_name": "Frank Cali's house",
    "latitude": 40.591216,
    "longitude": -74.108866,
    "source_url": "https://oddstops.com/frank-cali-house",
    "local_file": "C:\\death-atlas\\oddstops_saved\\Frank Cali's house.html"
  },
  {
    "subject_name": "Gypsy-Rose Blanchard's house",
    "latitude": 37.266663,
    "longitude": -93.318228,
    "source_url": "https://oddstops.com/gypsy-rose-house",
    "local_file": "C:\\death-atlas\\oddstops_saved\\Gypsy-Rose Blanchard's house.html"
  },
  {
    "subject_name": "Hervé Villechaize's house",
    "latitude": 34.1716,
    "longitude": -118.383586,
    "source_url": "https://oddstops.com/villechaize-house",
    "local_file": "C:\\death-atlas\\oddstops_saved\\Hervé Villechaize's house.html"
  },
  {
    "subject_name": "The restaurant where Joe Gallo was shot dead",
    "latitude": 40.718257,
    "longitude": -73.997983,
    "source_url": "https://oddstops.com/joe-gallo",
    "local_file": "C:\\death-atlas\\oddstops_saved\\Joe Gallo shooting location.html"
  },
  {
    "subject_name": "Kathryn Bright's house",
    "latitude": 37.707901,
    "longitude": -97.298067,
    "source_url": "https://oddstops.com/kathryn-bright-house",
    "local_file": "C:\\death-atlas\\oddstops_saved\\Kathryn Bright's house.html"
  },
  {
    "subject_name": "Maribel Ramos' house",
    "latitude": 33.797418,
    "longitude": -117.832829,
    "source_url": "https://oddstops.com/maribel-ramos",
    "local_file": "C:\\death-atlas\\oddstops_saved\\Maribel Ramos' house.html"
  },
  {
    "subject_name": "Marvin Gaye's house",
    "latitude": 34.037831,
    "longitude": -118.313607,
    "source_url": "https://oddstops.com/marvin-gaye-house",
    "local_file": "C:\\death-atlas\\oddstops_saved\\Marvin Gaye's house.html"
  },
  {
    "subject_name": "Mary Pewitt's house",
    "latitude": 34.362881,
    "longitude": -97.973403,
    "source_url": "https://oddstops.com/mary-pewitt",
    "local_file": "C:\\death-atlas\\oddstops_saved\\Mary Pewitt's house.html"
  },
  {
    "subject_name": "Matthew Perry's house",
    "latitude": 34.048876,
    "longitude": -118.568602,
    "source_url": "https://oddstops.com/matthew-perry-house",
    "local_file": "C:\\death-atlas\\oddstops_saved\\Matthew Perry's house.html"
  },
  {
    "subject_name": "Michael Jace's house",
    "latitude": 33.991763,
    "longitude": -118.33355,
    "source_url": "https://oddstops.com/michael-jace",
    "local_file": "C:\\death-atlas\\oddstops_saved\\Michael Jace's house.html"
  },
  {
    "subject_name": "The church where Missy Bevers was murdered",
    "latitude": 32.446671,
    "longitude": -96.924216,
    "source_url": "https://oddstops.com/missy-bevers",
    "local_file": "C:\\death-atlas\\oddstops_saved\\Missy Bevers_ Crime scene location.html"
  },
  {
    "subject_name": "Nancy Jo Fox's house",
    "latitude": 37.672553,
    "longitude": -97.282999,
    "source_url": "https://oddstops.com/nancy-jo-fox-house",
    "local_file": "C:\\death-atlas\\oddstops_saved\\Nancy Jo Fox's house.html"
  },
  {
    "subject_name": "Nicholas Browning's house",
    "latitude": 39.485763,
    "longitude": -76.627692,
    "source_url": "https://oddstops.com/waggoner-browning-house",
    "local_file": "C:\\death-atlas\\oddstops_saved\\Nicholas Browning's house.html"
  },
  {
    "subject_name": "Paul Castellano's murder site",
    "latitude": 40.753036,
    "longitude": -73.971998,
    "source_url": "https://oddstops.com/steak-house-castellano",
    "local_file": "C:\\death-atlas\\oddstops_saved\\Paul Castellano's murder site.html"
  },
  {
    "subject_name": "Paul Walker's crash site",
    "latitude": 34.453304,
    "longitude": -118.578954,
    "source_url": "https://oddstops.com/paul-walker",
    "local_file": "C:\\death-atlas\\oddstops_saved\\Paul Walker's crash site.html"
  },
  {
    "subject_name": "Rebecca Schaeffer's apartment",
    "latitude": 34.075164,
    "longitude": -118.369829,
    "source_url": "https://oddstops.com/rebecca-schaeffer-apartment",
    "local_file": "C:\\death-atlas\\oddstops_saved\\Rebecca Schaeffer's apartment.html"
  },
  {
    "subject_name": "Rock Hudson's house",
    "latitude": 34.096631,
    "longitude": -118.403687,
    "source_url": "https://oddstops.com/rock-hudson-house",
    "local_file": "C:\\death-atlas\\oddstops_saved\\Rock Hudson's house.html"
  },
  {
    "subject_name": "Sean Taylor's house",
    "latitude": 25.602998,
    "longitude": -80.314516,
    "source_url": "https://oddstops.com/sean-taylor-house",
    "local_file": "C:\\death-atlas\\oddstops_saved\\Sean Taylor's house.html"
  },
  {
    "subject_name": "Skylar Neese memorial site",
    "latitude": 39.736697,
    "longitude": -80.246136,
    "source_url": "https://oddstops.com/skylar-neese",
    "local_file": "C:\\death-atlas\\oddstops_saved\\Skylar Neese memorial site.html"
  },
  {
    "subject_name": "Superbike Motorsports",
    "latitude": 35.1234,
    "longitude": -81.91418,
    "source_url": "https://oddstops.com/motorcycle-shop-kohlhepp",
    "local_file": "C:\\death-atlas\\oddstops_saved\\Superbike Motorsports.html"
  },
  {
    "subject_name": "Teresa Graves' house",
    "latitude": 33.968282,
    "longitude": -118.332285,
    "source_url": "https://oddstops.com/teresa-graves",
    "local_file": "C:\\death-atlas\\oddstops_saved\\Teresa Graves' house.html"
  },
  {
    "subject_name": "The alley where Candice Welch was found",
    "latitude": 35.392868,
    "longitude": -118.993263,
    "source_url": "https://oddstops.com/candice-welch",
    "local_file": "C:\\death-atlas\\oddstops_saved\\The alley where Candice Welch was found.html"
  },
  {
    "subject_name": "The alley where Raonaid Murray was murdered",
    "latitude": 53.282205,
    "longitude": -6.130633,
    "source_url": "https://oddstops.com/raonaid-murray",
    "local_file": "C:\\death-atlas\\oddstops_saved\\The alley where Raonaid Murray was murdered.html"
  },
  {
    "subject_name": "The apartment where John Lennon was killed",
    "latitude": 40.776523,
    "longitude": -73.976337,
    "source_url": "https://oddstops.com/john-lennon-apartment",
    "local_file": "C:\\death-atlas\\oddstops_saved\\The apartment where John Lennon was killed.html"
  },
  {
    "subject_name": "The barber shop where Albert Anastasia was killed",
    "latitude": 40.764454,
    "longitude": -73.981053,
    "source_url": "https://oddstops.com/albert-anastasia",
    "local_file": "C:\\death-atlas\\oddstops_saved\\The barber shop where Albert Anastasia was killed.html"
  },
  {
    "subject_name": "The beach where Karen Vergata was found",
    "latitude": 40.679337,
    "longitude": -73.021226,
    "source_url": "https://oddstops.com/karen-vergata",
    "local_file": "C:\\death-atlas\\oddstops_saved\\The beach where Karen Vergata was found.html"
  },
  {
    "subject_name": "The Blue Rock Springs murder site",
    "latitude": 38.125834,
    "longitude": -122.191085,
    "source_url": "https://oddstops.com/blue-rock-springs",
    "local_file": "C:\\death-atlas\\oddstops_saved\\The Blue Rock Springs murder site.html"
  },
  {
    "subject_name": "The boat club where Roy DeMeo was found dead",
    "latitude": 40.583663,
    "longitude": -73.940535,
    "source_url": "https://oddstops.com/roy-demeo",
    "local_file": "C:\\death-atlas\\oddstops_saved\\The boat club where Roy DeMeo was found dead.html"
  },
  {
    "subject_name": "The car wash where Orlando Anderson was killed",
    "latitude": 33.888722,
    "longitude": -118.22806,
    "source_url": "https://oddstops.com/orlando-anderson",
    "local_file": "C:\\death-atlas\\oddstops_saved\\The car wash where Orlando Anderson was killed.html"
  },
  {
    "subject_name": "The CCC Club: Where Proof was killed",
    "latitude": 42.44977,
    "longitude": -82.963833,
    "source_url": "https://oddstops.com/proof-d12",
    "local_file": "C:\\death-atlas\\oddstops_saved\\The CCC Club_ Where Proof was killed.html"
  },
  {
    "subject_name": "The club where Dimebag Darrell was killed",
    "latitude": 40.068555,
    "longitude": -82.998769,
    "source_url": "https://oddstops.com/dimebag-darrell",
    "local_file": "C:\\death-atlas\\oddstops_saved\\The club where Dimebag Darrell was killed.html"
  },
  {
    "subject_name": "The Days Inn: The motel where Selena was shot dead",
    "latitude": 27.802211,
    "longitude": -97.453515,
    "source_url": "https://oddstops.com/motel-selena",
    "local_file": "C:\\death-atlas\\oddstops_saved\\The Days Inn_ The motel where Selena was shot dead.html"
  },
  {
    "subject_name": "The hotel where Janis Joplin died",
    "latitude": 34.104308,
    "longitude": -118.343129,
    "source_url": "https://oddstops.com/janis-joplin-hotel",
    "local_file": "C:\\death-atlas\\oddstops_saved\\The hotel where Janis Joplin died.html"
  },
  {
    "subject_name": "The hotel where Lynette Culver was murdered",
    "latitude": 42.900194,
    "longitude": -112.435595,
    "source_url": "https://oddstops.com/lynette-culver",
    "local_file": "C:\\death-atlas\\oddstops_saved\\The hotel where Lynette Culver was murdered.html"
  },
  {
    "subject_name": "The house where Ana Kriégel was murdered",
    "latitude": 53.362788,
    "longitude": -6.456301,
    "source_url": "https://oddstops.com/kriegel-murder-site",
    "local_file": "C:\\death-atlas\\oddstops_saved\\The house where Ana Kriégel was murdered.html"
  },
  {
    "subject_name": "The house where Andrew Lackey murdered Charles Newman",
    "latitude": 34.810352,
    "longitude": -86.983452,
    "source_url": "https://oddstops.com/charles-newman",
    "local_file": "C:\\death-atlas\\oddstops_saved\\The house where Andrew Lackey murdered Charles Newman.html"
  },
  {
    "subject_name": "The house where Ashley Ellerin was murdered",
    "latitude": 34.105186,
    "longitude": -118.340067,
    "source_url": "https://oddstops.com/ashley-ellerin",
    "local_file": "C:\\death-atlas\\oddstops_saved\\The house where Ashley Ellerin was murdered.html"
  },
  {
    "subject_name": "Shirley Vian's house",
    "latitude": 37.669483,
    "longitude": -97.317458,
    "source_url": "https://oddstops.com/shirley-vian-relford",
    "local_file": "C:\\death-atlas\\oddstops_saved\\The house where BTK murdered Shirley Vian Relford.html"
  },
  {
    "subject_name": "The house where Coolio died",
    "latitude": 34.028394,
    "longitude": -118.345213,
    "source_url": "https://oddstops.com/coolio-house",
    "local_file": "C:\\death-atlas\\oddstops_saved\\The house where Coolio died.html"
  },
  {
    "subject_name": "The house where Marlo Hyland was killed",
    "latitude": 53.380064,
    "longitude": -6.316731,
    "source_url": "https://oddstops.com/marlo-hyland",
    "local_file": "C:\\death-atlas\\oddstops_saved\\The house where Marlo Hyland was killed.html"
  },
  {
    "subject_name": "The house where Pop Smoke was murdered",
    "latitude": 34.106502,
    "longitude": -118.362737,
    "source_url": "https://oddstops.com/pop-smoke-house",
    "local_file": "C:\\death-atlas\\oddstops_saved\\The house where Pop Smoke was murdered.html"
  },
  {
    "subject_name": "The Lake Berryessa murder site",
    "latitude": 38.563619,
    "longitude": -122.231938,
    "source_url": "https://oddstops.com/lake-berryessa",
    "local_file": "C:\\death-atlas\\oddstops_saved\\The Lake Berryessa murder site.html"
  },
  {
    "subject_name": "The Lake Herman Road murder site",
    "latitude": 38.094871,
    "longitude": -122.144099,
    "source_url": "https://oddstops.com/lake-herman-road-site",
    "local_file": "C:\\death-atlas\\oddstops_saved\\The Lake Herman Road murder site.html"
  },
  {
    "subject_name": "The location where Brittanee Drexel was found",
    "latitude": 33.344264,
    "longitude": -79.336904,
    "source_url": "https://oddstops.com/brittanee-drexel-site",
    "local_file": "C:\\death-atlas\\oddstops_saved\\The location where Brittanee Drexel was found.html"
  },
  {
    "subject_name": "The location where Brooke Wilberger was murdered",
    "latitude": 44.60799,
    "longitude": -123.461131,
    "source_url": "https://oddstops.com/brooke-wilberger",
    "local_file": "C:\\death-atlas\\oddstops_saved\\The location where Brooke Wilberger was murdered.html"
  },
  {
    "subject_name": "The location where Caylee Anthony was found",
    "latitude": 28.48831,
    "longitude": -81.261033,
    "source_url": "https://oddstops.com/caylee-anthony",
    "local_file": "C:\\death-atlas\\oddstops_saved\\The location where Caylee Anthony was found.html"
  },
  {
    "subject_name": "The location where Darryl Baum was shot dead",
    "latitude": 40.687332,
    "longitude": -73.947621,
    "source_url": "https://oddstops.com/darryl-baum-murder",
    "local_file": "C:\\death-atlas\\oddstops_saved\\The location where Darryl Baum was shot dead.html"
  },
  {
    "subject_name": "The location where Ennis Cosby was murdered",
    "latitude": 34.125635,
    "longitude": -118.474932,
    "source_url": "https://oddstops.com/ennis-cosby",
    "local_file": "C:\\death-atlas\\oddstops_saved\\The location where Ennis Cosby was murdered.html"
  },
  {
    "subject_name": "The location where Joseph Augustus Zarelli was found",
    "latitude": 40.082377,
    "longitude": -75.071972,
    "source_url": "https://oddstops.com/joseph-augustus-zarelli",
    "local_file": "C:\\death-atlas\\oddstops_saved\\The location where Joseph Augustus Zarelli was found.html"
  },
  {
    "subject_name": "The location where Lindsey Pearlman was found",
    "latitude": 34.10343,
    "longitude": -118.353781,
    "source_url": "https://oddstops.com/lindsey-pearlman",
    "local_file": "C:\\death-atlas\\oddstops_saved\\The location where Lindsey Pearlman was found.html"
  },
  {
    "subject_name": "The location where Pat Garrett was killed",
    "latitude": 32.366149,
    "longitude": -106.717132,
    "source_url": "https://oddstops.com/pat-garrett-site",
    "local_file": "C:\\death-atlas\\oddstops_saved\\The location where Pat Garrett was killed.html"
  },
  {
    "subject_name": "The location where Sheila Ingold was found",
    "latitude": 39.058138,
    "longitude": -94.57245,
    "source_url": "https://oddstops.com/sheila-ingold",
    "local_file": "C:\\death-atlas\\oddstops_saved\\The location where Sheila Ingold was found.html"
  },
  {
    "subject_name": "The location where Veronica Guerin was killed",
    "latitude": 53.311826,
    "longitude": -6.397837,
    "source_url": "https://oddstops.com/veronica-guerin",
    "local_file": "C:\\death-atlas\\oddstops_saved\\The location where Veronica Guerin was killed.html"
  },
  {
    "subject_name": "The location where Virginia Voskerichian was killed",
    "latitude": 40.719169,
    "longitude": -73.845811,
    "source_url": "https://oddstops.com/virginia-voskerichian",
    "local_file": "C:\\death-atlas\\oddstops_saved\\The location where Virginia Voskerichian was killed.html"
  },
  {
    "subject_name": "The motel where Sam Cooke was killed",
    "latitude": 33.953296,
    "longitude": -118.28286,
    "source_url": "https://oddstops.com/sam-cooke-motel",
    "local_file": "C:\\death-atlas\\oddstops_saved\\The motel where Sam Cooke was killed.html"
  },
  {
    "subject_name": "The Otero family home",
    "latitude": 37.697593,
    "longitude": -97.271685,
    "source_url": "https://oddstops.com/otero-family-home",
    "local_file": "C:\\death-atlas\\oddstops_saved\\The Otero family home.html"
  },
  {
    "subject_name": "The pub where Bernard \"Verb\" Sugg was killed",
    "latitude": 53.399568,
    "longitude": -6.374661,
    "source_url": "https://oddstops.com/bernard-verb-sugg",
    "local_file": "C:\\death-atlas\\oddstops_saved\\The pub where Bernard _Verb_ Sugg was killed.html"
  },
  {
    "subject_name": "The pub where Eamon Dunne was killed",
    "latitude": 53.366223,
    "longitude": -6.28964,
    "source_url": "https://oddstops.com/eamon-dunne",
    "local_file": "C:\\death-atlas\\oddstops_saved\\The pub where Eamon Dunne was killed.html"
  },
  {
    "subject_name": "The restaurant where Jimmy Hoffa was last seen",
    "latitude": 42.542297,
    "longitude": -83.285444,
    "source_url": "https://oddstops.com/jimmy-hoffa",
    "local_file": "C:\\death-atlas\\oddstops_saved\\The restaurant where Jimmy Hoffa was last seen.html"
  },
  {
    "subject_name": "The site where Denise Christie Brothers was found",
    "latitude": 31.832643,
    "longitude": -102.396755,
    "source_url": "https://oddstops.com/denise-christie-brothers",
    "local_file": "C:\\death-atlas\\oddstops_saved\\The site where Denise Christie Brothers was found.html"
  },
  {
    "subject_name": "The site where Jessica Taylor was found",
    "latitude": 40.878734,
    "longitude": -72.78217,
    "source_url": "https://oddstops.com/jessica-taylor",
    "local_file": "C:\\death-atlas\\oddstops_saved\\The site where Jessica Taylor was found.html"
  },
  {
    "subject_name": "The site where June Cicero was found",
    "latitude": 43.188575,
    "longitude": -77.864531,
    "source_url": "https://oddstops.com/june-cicero",
    "local_file": "C:\\death-atlas\\oddstops_saved\\The site where June Cicero was found.html"
  },
  {
    "subject_name": "The site where Rita Tangredi was found",
    "latitude": 40.758018,
    "longitude": -72.968802,
    "source_url": "https://oddstops.com/rita-tangredi",
    "local_file": "C:\\death-atlas\\oddstops_saved\\The site where Rita Tangredi was found.html"
  },
  {
    "subject_name": "The site where Sarah Everard was found",
    "latitude": 51.152654,
    "longitude": 0.785829,
    "source_url": "https://oddstops.com/sarah-everard",
    "local_file": "C:\\death-atlas\\oddstops_saved\\The site where Sarah Everard was found.html"
  },
  {
    "subject_name": "The site where Valerie Mack was found",
    "latitude": 40.88057,
    "longitude": -72.79177,
    "source_url": "https://oddstops.com/manorville-valerie-mack",
    "local_file": "C:\\death-atlas\\oddstops_saved\\The site where Valerie Mack was found.html"
  },
  {
    "subject_name": "The Spilotro brothers' burial site",
    "latitude": 41.01323,
    "longitude": -87.479788,
    "source_url": "https://oddstops.com/anthony-spilotro",
    "local_file": "C:\\death-atlas\\oddstops_saved\\The Spilotro brothers' burial site.html"
  },
  {
    "subject_name": "The store where Young Dolph was killed",
    "latitude": 35.080666,
    "longitude": -89.98478,
    "source_url": "https://oddstops.com/young-dolph",
    "local_file": "C:\\death-atlas\\oddstops_saved\\The store where Young Dolph was killed.html"
  },
  {
    "subject_name": "The street where Big L was killed",
    "latitude": 40.816131,
    "longitude": -73.937415,
    "source_url": "https://oddstops.com/big-l",
    "local_file": "C:\\death-atlas\\oddstops_saved\\The street where Big L was killed.html"
  },
  {
    "subject_name": "The street where Donna Lauria was murdered",
    "latitude": 40.847236,
    "longitude": -73.833677,
    "source_url": "https://oddstops.com/donna-lauria",
    "local_file": "C:\\death-atlas\\oddstops_saved\\The street where Donna Lauria was murdered.html"
  },
  {
    "subject_name": "The street where Paul Stine was murdered",
    "latitude": 37.788793,
    "longitude": -122.456972,
    "source_url": "https://oddstops.com/paul-stine",
    "local_file": "C:\\death-atlas\\oddstops_saved\\The street where Paul Stine was murdered.html"
  },
  {
    "subject_name": "The theater where Christina Grimmie was killed",
    "latitude": 28.548768,
    "longitude": -81.351352,
    "source_url": "https://oddstops.com/christina-grimmie",
    "local_file": "C:\\death-atlas\\oddstops_saved\\The theater where Christina Grimmie was killed.html"
  },
  {
    "subject_name": "The Viper Room: The club where River Phoenix died",
    "latitude": 34.090485,
    "longitude": -118.384734,
    "source_url": "https://oddstops.com/river-phoenix-nightclub",
    "local_file": "C:\\death-atlas\\oddstops_saved\\The Viper Room_ The club where River Phoenix died.html"
  },
  {
    "subject_name": "The woods where Sandra Costilla was found",
    "latitude": 40.935658,
    "longitude": -72.40729,
    "source_url": "https://oddstops.com/sandra-costilla-murdered",
    "local_file": "C:\\death-atlas\\oddstops_saved\\The woods where Sandra Costilla was found.html"
  },
  {
    "subject_name": "Vicki Lynn Wegerle's house",
    "latitude": 37.709084,
    "longitude": -97.369739,
    "source_url": "https://oddstops.com/vicki-lynn-wegerle-house",
    "local_file": "C:\\death-atlas\\oddstops_saved\\Vicki Lynn Wegerle's house.html"
  },
  {
    "subject_name": "XXXTentacion's death location",
    "latitude": 26.27657,
    "longitude": -80.114218,
    "source_url": "https://oddstops.com/xxxtentacion",
    "local_file": "C:\\death-atlas\\oddstops_saved\\XXXTentacion's death location.html"
  }
]